[
    {
        "id": 1,
        "name": "Bogotá",
        "lat": "4.7100",
        "lng": "-74.0721"
    },
    {
        "id": 2,
        "name": "Medellín",
        "lat": "6.2442",
        "lng": "-75.5812"
    },
    {
        "id": 3,
        "name": "Cali",
        "lat": "3.4516",
        "lng": "-76.5320"
    },
    {
        "id": 4,
        "name": "Barranquilla",
        "lat": "10.9639",
        "lng": "-74.7964"
    },
    {
        "id": 5,
        "name": "Cartagena",
        "lat": "10.3910",
        "lng": "-75.4794"
    },
    {
        "id": 6,
        "name": "Cúcuta",
        "lat": "7.8891",
        "lng": "-72.4969"
    },
    {
        "id": 7,
        "name": "Bucaramanga",
        "lat": "7.1193",
        "lng": "-73.1227"
    },
    {
        "id": 8,
        "name": "Pereira",
        "lat": "4.8087",
        "lng": "-75.6906"
    },
    {
        "id": 9,
        "name": "Santa Marta",
        "lat": "11.2404",
        "lng": "-74.1990"
    },
    {
        "id": 10,
        "name": "Manizales",
        "lat": "5.0689",
        "lng": "-75.5174"
    }
]